Weighted.Score,NTA,NTA.Name,Geometry,Latitude (generated),Longitude (generated),Food.Insecure.Percentage Rank,Food.Insecure.Percentage,Rank,sg abv ca Rank,Sg Abv Ca,Unemployment.Rate Rank,Unemployment.Rate,Vulnerable.Population.Percentage Rank,Vulnerable.Population.Percentage
8.221,BK0104,East Williamsburg,MultiPolygon,40.714788716,-73.932444471,1,35.99%,1,1,2776626.0961,126,6.38%,146,12.43%
8.0704,BX0501,University Heights (South)-Morris Heights,MultiPolygon,40.850930055,-73.918962946,14,29.44%,2,6,1669388.8684,20,11.98%,34,19.63%
7.6866,BX0901,Soundview-Bruckner-Bronx River,MultiPolygon,40.830598849,-73.872392593,36,22.63%,3,7,1625975.8588,32,10.06%,25,21.43%
7.3895,MN1202,Washington Heights (North),MultiPolygon,40.857729390,-73.935499710,28,24.29%,4,9,1463457.0199,19,12.25%,41,18.57%
7.2775,BK1503,Sheepshead Bay-Manhattan Beach-Gerritsen Beach,MultiPolygon,40.587224928,-73.933868201,42,21.11%,5,3,1907055.7504,170,4.91%,81,15.95%
7.2076,BX0403,Mount Eden-Claremont (West),MultiPolygon,40.840127951,-73.912376630,50,19.88%,6,48,616739.6518,8,14.42%,27,21.27%
7.1887,BX0702,Bedford Park,MultiPolygon,40.875694822,-73.892163851,12,30.06%,7,42,640922.4202,13,13.33%,17,24.55%
7.1209,BX0601,West Farms,MultiPolygon,40.841423870,-73.876683837,2,34.35%,8,67,464644.5264,2,16.58%,64,16.67%
7.0871,MN1201,Washington Heights (South),MultiPolygon,40.842277657,-73.943207992,47,20.29%,9,19,992331.3375,12,13.60%,37,19.32%
7.0706,QN0301,Jackson Heights,MultiPolygon,40.757243116,-73.889711224,68,17.62%,10,5,1730635.8198,49,9.09%,12,26.41%
6.903,BX0101,Mott Haven-Port Morris,MultiPolygon,40.806182777,-73.915961281,7,31.43%,11,107,189799.9432,15,13.11%,90,15.27%
6.8898,BX0603,Belmont,MultiPolygon,40.857581160,-73.886319906,3,33.87%,12,103,227731.8694,5,15.03%,23,22.36%
6.8246,BK0702,Sunset Park (West),MultiPolygon,40.654915604,-74.012761179,41,21.51%,13,10,1242983.0474,130,6.28%,26,21.33%
6.804,MN0301,Chinatown-Two Bridges,MultiPolygon,40.711798571,-73.994229156,70,17.43%,14,37,714859.1279,24,11.55%,46,18.02%
6.7968,MN1101,East Harlem (South),MultiPolygon,40.788564760,-73.943276135,40,21.65%,15,25,884649.9346,54,8.97%,135,12.97%
6.7318,BX0502,Mount Hope,MultiPolygon,40.848764136,-73.906053558,56,19.38%,16,114,101509.5768,11,13.86%,19,23.94%
6.7024,BX0402,Highbridge,MultiPolygon,40.837593529,-73.927407504,5,32.07%,17,31,755612.1808,39,9.79%,92,15.18%
6.6493,BX0803,Riverdale-Spuyten Duyvil,MultiPolygon,40.892041605,-73.910748108,17,27.11%,18,2,2022029.1425,141,5.62%,170,10.73%
6.6135,BK1302,Coney Island-Sea Gate,MultiPolygon,40.575664729,-73.985847742,30,24.17%,19,18,994956.76,31,10.17%,119,13.46%
6.5994,BX1104,Allerton,MultiPolygon,40.863473925,-73.864642682,89,15.94%,20,38,693814.7977,30,10.64%,54,17.57%
6.5749,BK1001,Bay Ridge,MultiPolygon,40.627733866,-74.029233702,74,17.16%,21,4,1760897.7134,134,6.07%,117,13.66%
6.4885,QN0402,Corona,MultiPolygon,40.742527598,-73.857347153,113,14.10%,22,39,679291.5649,117,6.68%,6,32.09%
6.4451,QN0101,Astoria (North)-Ditmars-Steinway,MultiPolygon,40.779205282,-73.898167058,49,20.10%,23,8,1550913.7042,82,7.72%,132,13.15%
6.4179,BK1101,Bensonhurst,MultiPolygon,40.612525445,-73.993875646,94,15.54%,24,14,1055881.799,86,7.53%,16,24.86%
6.4155,BK1602,Brownsville,MultiPolygon,40.664136909,-73.910411116,27,24.29%,25,150,-397022.3107,7,14.85%,110,13.98%
6.4041,BK0103,South Williamsburg,MultiPolygon,40.703330852,-73.955462168,107,14.54%,26,36,718688.8672,58,8.79%,193,7.70%
6.3576,BX0503,Fordham Heights,MultiPolygon,40.858694350,-73.899350036,83,16.19%,27,139,-197167.6924,9,14.27%,11,26.83%
6.3512,QN0401,Elmhurst,MultiPolygon,40.737841093,-73.880637114,118,13.99%,28,12,1105882.2112,146,5.48%,5,32.40%
6.3124,BX0302,Claremont Village-Claremont (East),MultiPolygon,40.838177369,-73.904148384,6,31.58%,29,143,-266831.0613,6,14.92%,139,12.72%
6.3122,QN0502,Ridgewood,MultiPolygon,40.704750498,-73.904227984,132,12.82%,30,21,946858.3454,108,6.98%,36,19.54%
6.2935,BX1203,Wakefield-Woodlawn,MultiPolygon,40.900432162,-73.858018395,57,19.28%,31,82,357864.871,44,9.24%,89,15.28%
6.2888,BX0701,University Heights (North)-Fordham,MultiPolygon,40.864000838,-73.905845048,19,26.67%,32,106,196301.0523,14,13.32%,18,24.22%
6.2705,QN0804,Jamaica Estates-Holliswood,MultiPolygon,40.720792105,-73.777365548,39,21.99%,33,43,634647.9556,69,8.41%,49,17.94%
6.2667,MN0703,Upper West Side-Manhattan Valley,MultiPolygon,40.800288670,-73.969180118,97,15.41%,34,32,752131.6343,100,7.16%,113,13.82%
6.2553,MN1002,Harlem (North),MultiPolygon,40.824704255,-73.937887303,54,19.60%,35,87,326600.4669,21,11.77%,138,12.75%
6.2421,BX1202,Eastchester-Edenwald-Baychester,MultiPolygon,40.882487636,-73.829046495,23,25.37%,36,111,143915.367,42,9.62%,101,14.55%
6.238,BX1101,Pelham Parkway-Van Nest,MultiPolygon,40.848238199,-73.865545168,46,20.47%,37,41,652105.9579,36,9.91%,58,17.16%
6.2258,BX0801,Kingsbridge Heights-Van Cortlandt Village,MultiPolygon,40.878085402,-73.897753939,58,19.27%,38,23,911265.4762,38,9.80%,53,17.74%
6.2199,MN0902,Manhattanville-West Harlem,MultiPolygon,40.819640105,-73.956139932,25,24.41%,39,64,498743.2251,16,12.92%,106,14.25%
6.1726,BX0802,Kingsbridge-Marble Hill,MultiPolygon,40.880144292,-73.906632461,24,25.35%,40,17,995771.4658,57,8.88%,78,16.06%
6.1476,MN1102,East Harlem (North),MultiPolygon,40.804154727,-73.934566383,22,25.44%,41,126,-41044.8361,52,8.98%,144,12.46%
6.1449,BK0102,Williamsburg,MultiPolygon,40.714867036,-73.961289290,80,16.60%,42,28,822035.3505,124,6.38%,141,12.50%
6.1249,MN0701,Upper West Side-Lincoln Square,MultiPolygon,40.775375673,-73.988197242,131,12.89%,43,22,935126.5509,133,6.07%,107,14.23%
6.1183,BX0904,Parkchester,MultiPolygon,40.837431342,-73.858690673,161,10.97%,44,90,309029.5383,23,11.61%,94,14.98%
6.1081,BX0303,Crotona Park East,MultiPolygon,40.831745928,-73.887416701,11,30.35%,45,138,-184155.0552,22,11.66%,73,16.30%
6.1043,SI0204,New Springville-Willowbrook-Bulls Head-Travis,MultiPolygon,40.603041873,-74.186465256,86,16.09%,46,13,1075153.9241,168,5.02%,162,11.41%
6.1025,BX1201,Williamsbridge-Olinville,MultiPolygon,40.881085360,-73.861294212,48,20.16%,47,130,-67503.599,29,10.74%,75,16.18%
6.1005,QN0701,College Point,MultiPolygon,40.786144010,-73.843118930,44,20.81%,48,16,1032956.4409,46,9.13%,38,19.26%
6.0741,QN0704,Murray Hill-Broadway Flushing,MultiPolygon,40.769684530,-73.812895970,140,12.37%,49,27,831093.2051,152,5.45%,10,27.11%
6.0584,BK1204,Mapleton-Midwood (West),MultiPolygon,40.621047105,-73.974228970,21,26.43%,50,33,750828.8393,162,5.11%,109,13.99%
6.0331,BK1103,Gravesend (West),MultiPolygon,40.596228885,-73.990366695,87,16.00%,51,34,749121.5149,55,8.94%,24,21.88%
6.0214,BX0602,Tremont,MultiPolygon,40.847091974,-73.890749994,8,31.25%,52,149,-374790.7404,17,12.47%,69,16.40%
6.0137,QN1001,South Ozone Park,MultiPolygon,40.675576244,-73.815067679,139,12.48%,53,124,-11249.6798,51,9.05%,52,17.76%
5.9755,BX0401,Concourse-Concourse Village,MultiPolygon,40.825250306,-73.923225726,31,23.82%,54,158,-651134.1577,26,11.09%,39,19.07%
5.9516,BK1201,Sunset Park (East)-Borough Park (West),MultiPolygon,40.640683480,-73.999705755,85,16.11%,55,53,556183.1125,47,9.13%,8,29.07%
5.9503,BK0401,Bushwick (West),MultiPolygon,40.700697020,-73.926962142,81,16.53%,56,99,256139.4679,103,7.12%,80,16.01%
5.9463,BK1501,Gravesend (East)-Homecrest,MultiPolygon,40.596958517,-73.968522650,69,17.61%,57,15,1033946.3546,95,7.22%,57,17.25%
5.9452,BK1202,Borough Park,MultiPolygon,40.632703056,-73.989149097,52,19.68%,58,47,617741.4649,85,7.53%,152,12.12%
5.8745,MN0901,Morningside Heights,MultiPolygon,40.809804546,-73.963111573,38,22.18%,59,136,-132096.4368,34,10.00%,40,18.80%
5.8683,QN0707,Flushing-Willets Point,MultiPolygon,40.759588654,-73.833503644,88,15.96%,60,79,365502.9772,118,6.67%,2,36.52%
5.8564,QN0103,Astoria (Central),MultiPolygon,40.765726256,-73.923927748,150,11.65%,61,50,589411.2964,114,6.82%,77,16.10%
5.8532,QN0501,Maspeth,MultiPolygon,40.723480548,-73.911144039,151,11.58%,62,63,500753.8188,112,6.87%,45,18.05%
5.8437,QN1401,Far Rockaway-Bayswater,MultiPolygon,40.601954769,-73.759304607,84,16.15%,63,141,-234290.8483,37,9.85%,91,15.24%
5.8399,QN0805,Jamaica Hills-Briarwood,MultiPolygon,40.712660038,-73.809698169,109,14.25%,64,128,-42203.402,41,9.67%,42,18.54%
5.8195,BX1002,Throgs Neck-Schuylerville,MultiPolygon,40.820463722,-73.812469198,96,15.43%,65,20,954937.338,101,7.13%,186,9.27%
5.8161,BX0903,Castle Hill-Unionport,MultiPolygon,40.823265958,-73.843865811,33,23.77%,66,81,358427.6011,63,8.71%,85,15.51%
5.7972,BX1103,Pelham Gardens,MultiPolygon,40.863984015,-73.846823957,111,14.20%,67,105,217002.497,115,6.81%,136,12.90%
5.7956,MN0903,Hamilton Heights-Sugar Hill,MultiPolygon,40.828483276,-73.949586164,62,18.40%,68,69,452959.8826,71,8.35%,50,17.84%
5.7885,BK0504,Spring Creek-Starrett City,MultiPolygon,40.647553518,-73.879138658,37,22.38%,69,123,917.4933,76,8.13%,191,8.26%
5.771,QN0104,Astoria (East)-Woodside (North),MultiPolygon,40.760088749,-73.905823898,75,16.93%,70,30,757885.3646,61,8.73%,47,18.01%
5.7684,BK0204,Clinton Hill,MultiPolygon,40.691079541,-73.963647384,65,17.89%,71,108,189677.3903,83,7.59%,180,10.15%
5.768,MN0302,Lower East Side,MultiPolygon,40.715692969,-73.983178925,34,23.39%,72,95,280679.9482,158,5.32%,140,12.56%
5.7483,BK0701,Windsor Terrace-South Slope,MultiPolygon,40.655147031,-73.978423486,119,13.94%,73,52,567706.2066,123,6.39%,174,10.51%
5.7031,BK1002,Dyker Heights,MultiPolygon,40.625153549,-74.012282173,53,19.65%,74,26,871603.1507,116,6.72%,28,20.72%
5.7024,BK0203,Fort Greene,MultiPolygon,40.692782361,-73.974556698,71,17.39%,75,121,32229.3141,75,8.24%,173,10.59%
5.6998,SI0203,Todt Hill-Emerson Hill-Lighthouse Hill-Manor Heights,MultiPolygon,40.590235491,-74.127480735,32,23.78%,76,51,577956.4114,145,5.52%,169,10.84%
5.6944,BX0902,Soundview-Clason Point,MultiPolygon,40.811791394,-73.856374513,63,18.22%,77,127,-42009.3546,28,10.91%,168,11.04%
5.6832,BK1403,Midwood,MultiPolygon,40.620848286,-73.955947878,102,15.05%,78,86,329602.3106,139,5.66%,65,16.66%
5.6821,BX0703,Norwood,MultiPolygon,40.877882012,-73.881446651,61,18.75%,79,154,-502278.5904,33,10.00%,22,23.44%
5.6735,QN1102,Bayside,MultiPolygon,40.761348889,-73.765584954,133,12.79%,80,35,735286.4874,179,4.40%,112,13.86%
5.6562,MN0502,Midtown-Times Square,MultiPolygon,40.758243061,-73.981488234,4,33.46%,81,57,549637.2908,136,5.77%,84,15.68%
5.6492,BK0101,Greenpoint,MultiPolygon,40.733143801,-73.949249781,137,12.63%,82,40,656338.4355,91,7.35%,147,12.39%
5.6278,BK0503,East New York-New Lots,MultiPolygon,40.659231777,-73.889333395,55,19.51%,83,168,-919757.0744,18,12.36%,129,13.23%
5.6172,MN0402,Hell's Kitchen,MultiPolygon,40.765944822,-73.995934231,142,12.22%,84,85,345671.5112,127,6.36%,100,14.75%
5.5918,QN0302,East Elmhurst,MultiPolygon,40.764173128,-73.871416297,59,18.87%,85,131,-86169.6618,97,7.17%,21,23.64%
5.5913,QN1301,Glen Oaks-Floral Park-New Hyde Park,MultiPolygon,40.747091105,-73.716352794,9,31.09%,86,11,1188617.8994,183,4.19%,118,13.63%
5.5821,BK0602,Park Slope,MultiPolygon,40.673292205,-73.977140002,176,9.43%,87,68,461116.7487,142,5.62%,181,9.87%
5.5743,BK0601,Carroll Gardens-Cobble Hill-Gowanus-Red Hook,MultiPolygon,40.676079752,-74.007571898,76,16.86%,88,110,172490.3731,99,7.17%,172,10.65%
5.5665,QN1302,Bellerose,MultiPolygon,40.735417113,-73.729933789,156,11.30%,89,66,471326.9946,143,5.58%,70,16.36%
5.5648,QN0702,Whitestone-Beechhurst,MultiPolygon,40.794444238,-73.808890094,157,11.20%,90,58,542804.1934,65,8.67%,155,11.95%
5.5636,BX1003,Pelham Bay-Country Club-City Island,MultiPolygon,40.847558119,-73.798632762,138,12.57%,91,55,553185.0995,62,8.72%,142,12.48%
5.5632,BK0301,Bedford-Stuyvesant (West),MultiPolygon,40.689962389,-73.950450495,95,15.52%,92,153,-463783.509,81,7.77%,176,10.28%
5.5399,SI0105,Westerleigh-Castleton Corners,MultiPolygon,40.616396012,-74.127445201,165,10.72%,93,60,523984.8812,182,4.27%,188,9.16%
5.5337,SI0107,Mariner's Harbor-Arlington-Graniteville,MultiPolygon,40.638279735,-74.170034179,158,11.05%,94,74,397831.7666,107,7.00%,120,13.44%
5.5144,BK0703,Sunset Park (Central),MultiPolygon,40.641263541,-74.009658581,129,13.28%,95,102,253310.0107,98,7.17%,3,33.29%
5.5142,QN1003,Howard Beach-Lindenwood,MultiPolygon,40.657712782,-73.842724279,141,12.25%,96,59,541093.5056,74,8.25%,195,7.59%
5.502,MN0702,Upper West Side (Central),MultiPolygon,40.786979024,-73.979423188,144,12.12%,97,92,307081.4724,178,4.42%,127,13.25%
5.4956,MN0603,Murray Hill-Kips Bay,MultiPolygon,40.740871953,-73.971626772,163,10.91%,98,45,624966.4639,191,3.26%,103,14.47%
5.4782,SI0202,New Dorp-Midland Beach,MultiPolygon,40.571529456,-74.101183502,184,8.45%,99,77,385255.7874,150,5.46%,79,16.05%
5.4778,QN1306,Springfield Gardens (South)-Brookville,MultiPolygon,40.659849749,-73.767297343,179,9.02%,100,144,-270719.192,67,8.56%,149,12.38%
5.4764,SI0201,Grasmere-Arrochar-South Beach-Dongan Hills,MultiPolygon,40.592854938,-74.082009249,149,11.69%,101,70,433547.2787,164,5.08%,160,11.58%
5.4726,QN0706,Queensboro Hill,MultiPolygon,40.742885679,-73.819562130,10,30.92%,102,24,905811.3374,161,5.16%,9,28.48%
5.4428,SI0301,Oakwood-Richmondtown,MultiPolygon,40.563334549,-74.121785813,174,9.54%,103,100,254079.996,132,6.19%,189,9.12%
5.4158,BX1102,Morris Park,MultiPolygon,40.851448129,-73.848001023,18,26.96%,104,75,397713.7853,77,8.12%,83,15.68%
5.4122,MN0201,SoHo-Little Italy-Hudson Square,MultiPolygon,40.724003316,-74.004188565,92,15.79%,105,89,312580.3452,188,3.45%,131,13.18%
5.4091,QN0303,North Corona,MultiPolygon,40.755410960,-73.860970873,122,13.77%,106,112,116976.1498,192,3.18%,1,39.69%
5.4042,QN1403,Breezy Point-Belle Harbor-Rockaway Park-Broad Channel,MultiPolygon,40.583672275,-73.855278084,64,17.97%,107,93,300542.801,128,6.33%,192,8.26%
5.3905,BK1303,Brighton Beach,MultiPolygon,40.578382427,-73.960371505,168,10.17%,108,116,82148.9063,181,4.36%,13,26.20%
5.3761,QN1101,Auburndale,MultiPolygon,40.754400714,-73.785888183,128,13.40%,109,29,765552.4973,157,5.33%,44,18.09%
5.3524,BX1004,Co-op City,MultiPolygon,40.871938170,-73.826821394,148,11.79%,110,84,353584.608,68,8.51%,187,9.17%
5.3498,BK1102,Bath Beach,MultiPolygon,40.602559819,-74.008280563,77,16.82%,111,44,626488.4884,148,5.47%,31,20.36%
5.3445,MN0102,Tribeca-Civic Center,MultiPolygon,40.716525424,-74.007496015,146,11.87%,112,94,295337.4346,194,2.98%,164,11.19%
5.3225,BX0201,Hunts Point,MultiPolygon,40.807640152,-73.888950690,20,26.58%,113,167,-883051.0028,10,14.08%,68,16.45%
5.3079,MN0303,East Village,MultiPolygon,40.724138137,-73.977517221,90,15.86%,114,109,188107.9845,156,5.34%,159,11.74%
5.2864,QN1002,Ozone Park,MultiPolygon,40.675369624,-73.847743448,16,27.15%,115,56,552004.1179,121,6.47%,104,14.31%
5.2516,QN0601,Rego Park,MultiPolygon,40.726185751,-73.864189397,73,17.24%,116,49,607574.3122,147,5.48%,30,20.39%
5.2454,MN0202,Greenwich Village,MultiPolygon,40.729577374,-73.995442426,145,11.98%,117,83,354246.2357,140,5.65%,165,11.16%
5.2339,QN1402,Rockaway Beach-Arverne-Edgemere,MultiPolygon,40.593585850,-73.795782741,110,14.22%,118,133,-98644.2063,73,8.26%,158,11.79%
5.2165,SI0103,Rosebank-Shore Acres-Park Hill,MultiPolygon,40.614333465,-74.071177159,187,8.08%,119,140,-220501.2981,80,7.90%,145,12.44%
5.2114,QN0705,East Flushing,MultiPolygon,40.751080708,-73.804499014,45,20.70%,120,96,274269.3115,90,7.36%,7,29.60%
5.1866,MN0501,Midtown South-Flatiron-Union Square,MultiPolygon,40.742995694,-73.990058837,93,15.55%,121,113,105808.4448,166,5.07%,121,13.41%
5.1813,QN0202,Sunnyside,MultiPolygon,40.736930562,-73.930126787,82,16.36%,122,156,-505568.1104,120,6.52%,14,25.55%
5.1726,MN0801,Upper East Side-Lenox Hill-Roosevelt Island,MultiPolygon,40.762140873,-73.952479581,180,9.01%,123,46,621584.8186,187,3.67%,62,16.80%
5.1623,QN0503,Glendale,MultiPolygon,40.702330906,-73.876469049,67,17.72%,124,117,79226.3245,171,4.88%,99,14.81%
5.1603,MN0803,Upper East Side-Yorkville,MultiPolygon,40.778645944,-73.944481725,169,10.16%,125,65,487634.8317,160,5.20%,157,11.88%
5.1386,QN0201,Long Island City-Hunters Point,MultiPolygon,40.743574779,-73.952683702,153,11.46%,126,145,-277593.3785,144,5.53%,29,20.54%
5.1318,BK1502,Madison,MultiPolygon,40.605583731,-73.946443949,114,14.06%,127,72,422269.3673,154,5.35%,74,16.27%
5.1288,MN0802,Upper East Side-Carnegie Hill,MultiPolygon,40.775359338,-73.960646512,66,17.81%,128,61,520883.1931,163,5.11%,167,11.06%
5.1129,MN0203,West Village,MultiPolygon,40.736152596,-74.008644861,152,11.54%,129,101,253349.6214,93,7.27%,177,10.26%
5.1118,QN0802,Pomonok-Electchester-Hillcrest,MultiPolygon,40.728423713,-73.804845697,166,10.66%,130,120,37786.5637,60,8.73%,116,13.80%
5.0869,QN0703,Bay Terrace-Clearview,MultiPolygon,40.781933037,-73.785764150,170,9.97%,131,78,381067.5249,135,5.93%,175,10.29%
5.0758,BX1001,Westchester Square,MultiPolygon,40.837466754,-73.843726784,26,24.31%,132,146,-280008.9768,104,7.08%,48,17.98%
5.0732,BK0402,Bushwick (East),MultiPolygon,40.690354358,-73.912421977,98,15.23%,133,162,-831492.9453,84,7.57%,111,13.92%
5.0635,BK0802,Crown Heights (North),MultiPolygon,40.674231078,-73.938572991,99,15.21%,134,172,-1060374.8421,66,8.66%,161,11.42%
5.023,SI0302,Great Kills-Eltingville,MultiPolygon,40.544730178,-74.147164163,188,8.01%,135,73,404970.069,159,5.27%,194,7.63%
4.9998,SI0101,St. George-New Brighton,MultiPolygon,40.642711469,-74.079767631,190,7.53%,136,148,-309762.2068,64,8.68%,143,12.47%
4.9812,QN1203,Baisley Park,MultiPolygon,40.677826091,-73.791818128,183,8.62%,137,173,-1116687.2877,40,9.75%,96,14.90%
4.9786,QN0803,Fresh Meadows-Utopia,MultiPolygon,40.735576131,-73.788875036,121,13.84%,138,62,508143.2153,185,4.01%,82,15.76%
4.9605,QN0904,Ozone Park (North),MultiPolygon,40.684246805,-73.851261785,15,28.32%,139,122,29508.4904,87,7.47%,33,19.73%
4.9554,SI0304,Annadale-Huguenot-Prince's Bay-Woodrow,MultiPolygon,40.522662996,-74.198541640,171,9.82%,140,54,553347.696,189,3.40%,196,7.49%
4.9508,QN0102,Old Astoria-Hallets Point,MultiPolygon,40.772490179,-73.931811139,51,19.82%,141,119,59285.6616,92,7.35%,43,18.16%
4.949,QN1104,Oakland Gardens-Hollis Hills,MultiPolygon,40.739631011,-73.754082535,173,9.76%,142,71,426721.4878,177,4.44%,124,13.30%
4.947,MN0604,East Midtown-Turtle Bay,MultiPolygon,40.755197818,-73.967670692,186,8.11%,143,76,388221.0416,175,4.60%,128,13.24%
4.9457,QN1103,Douglaston-Little Neck,MultiPolygon,40.768428412,-73.743408610,164,10.78%,144,98,258347.5935,137,5.74%,153,12.00%
4.9265,BK0801,Prospect Heights,MultiPolygon,40.676077009,-73.967666913,155,11.32%,145,115,89800.7604,172,4.84%,185,9.38%
4.9155,MN0601,Stuyvesant Town-Peter Cooper Village,MultiPolygon,40.731430802,-73.974469966,104,14.97%,146,88,323939.5496,196,2.60%,133,13.10%
4.9151,MN0401,Chelsea-Hudson Yards,MultiPolygon,40.750408003,-74.005783260,135,12.74%,147,142,-251103.7907,180,4.38%,150,12.19%
4.9111,BK1401,Flatbush,MultiPolygon,40.642076553,-73.957074843,185,8.23%,148,160,-715826.7657,165,5.07%,66,16.58%
4.8789,SI0104,West New Brighton-Silver Lake-Grymes Hill,MultiPolygon,40.631213622,-74.104512102,126,13.50%,149,125,-20428.5443,176,4.51%,178,10.23%
4.8773,BK1802,Marine Park-Mill Basin-Bergen Beach,MultiPolygon,40.614646931,-73.913014106,167,10.54%,150,137,-152372.5432,190,3.36%,166,11.15%
4.873,SI0303,Arden Heights-Rossville,MultiPolygon,40.554591457,-74.195445869,194,6.00%,151,91,307646.0685,173,4.70%,190,8.43%
4.8702,MN0602,Gramercy,MultiPolygon,40.736510982,-73.983673412,159,11.02%,152,97,266392.705,193,2.99%,184,9.65%
4.8643,BK0902,Prospect Lefferts Gardens-Wingate,MultiPolygon,40.659737784,-73.947056313,143,12.17%,153,163,-848516.8806,129,6.29%,137,12.85%
4.8629,QN1307,Rosedale,MultiPolygon,40.647797135,-73.741959219,195,5.49%,154,129,-52191.3035,89,7.44%,134,13.08%
4.8538,BK0901,Crown Heights (South),MultiPolygon,40.666667857,-73.946558047,112,14.14%,155,151,-427945.4578,53,8.97%,98,14.85%
4.8112,BK1704,East Flatbush-Remsen Village,MultiPolygon,40.656217435,-73.919676609,108,14.46%,156,179,-1435302.713,27,11.02%,61,16.81%
4.7739,BK1701,East Flatbush-Erasmus,MultiPolygon,40.647333976,-73.950159764,147,11.82%,157,171,-1005067.2496,102,7.13%,72,16.35%
4.7738,QN0905,Woodhaven,MultiPolygon,40.690893887,-73.857276999,136,12.71%,158,152,-453921.8731,106,7.02%,32,19.82%
4.7725,QN0903,South Richmond Hill,MultiPolygon,40.692044074,-73.823124229,117,13.99%,159,155,-505298.1104,78,7.99%,15,25.11%
4.7717,BK1702,East Flatbush-Farragut,MultiPolygon,40.638873754,-73.935489775,175,9.51%,160,174,-1214653.8267,59,8.74%,60,16.94%
4.7631,BK1203,Kensington,MultiPolygon,40.641363438,-73.976256898,134,12.78%,161,134,-109831.4229,138,5.67%,108,14.23%
4.7528,QN0602,Forest Hills,MultiPolygon,40.721022496,-73.844836927,162,10.97%,162,135,-110801.2981,174,4.61%,67,16.51%
4.7246,SI0305,Tottenville-Charleston,MultiPolygon,40.528929811,-74.236435581,106,14.60%,163,80,362588.991,197,1.38%,197,7.04%
4.6922,BK0201,Brooklyn Heights,MultiPolygon,40.696691449,-73.994714683,181,8.96%,164,104,220711.6,186,3.77%,182,9.80%
4.6868,BK1402,Flatbush (West)-Ditmas Park-Parkville,MultiPolygon,40.637421072,-73.966973058,78,16.81%,165,165,-858689.7245,111,6.91%,76,16.13%
4.6179,QN0901,Kew Gardens,MultiPolygon,40.708617713,-73.829677266,125,13.57%,166,132,-90179.3138,151,5.45%,126,13.27%
4.6066,BX0202,Longwood,MultiPolygon,40.821031654,-73.895319841,43,20.97%,167,185,-1900388.3471,1,17.00%,93,15.06%
4.5837,MN1203,Inwood,MultiPolygon,40.863866016,-73.917141760,103,14.99%,168,170,-930280.2196,72,8.34%,59,17.05%
4.5734,BK0505,East New York-City Line,MultiPolygon,40.667239628,-73.866642755,100,15.16%,169,176,-1250389.7944,122,6.43%,125,13.28%
4.5585,BK0202,Downtown Brooklyn-DUMBO-Boerum Hill,MultiPolygon,40.697711630,-73.986537330,120,13.93%,170,147,-290621.2545,131,6.26%,102,14.49%
4.5446,SI0106,Port Richmond,MultiPolygon,40.636153922,-74.130330024,127,13.49%,171,164,-858562.3008,56,8.91%,87,15.32%
4.4826,BK1301,Gravesend (South),MultiPolygon,40.587850701,-73.982986262,29,24.25%,172,161,-820212.2393,50,9.06%,51,17.83%
4.482,MN0101,Financial District-Battery Park City,MultiPolygon,40.705617146,-74.009292394,160,10.99%,173,118,72142.5598,195,2.96%,171,10.68%
4.4723,QN1204,Springfield Gardens (North)-Rochdale Village,MultiPolygon,40.674597814,-73.771202652,193,7.03%,174,175,-1249890.6689,109,6.93%,183,9.70%
4.3831,BK0502,East New York (North),MultiPolygon,40.673788155,-73.888794780,91,15.79%,175,183,-1871331.6074,35,9.91%,114,13.82%
4.3791,BX0102,Melrose,MultiPolygon,40.818767850,-73.914257425,35,22.73%,176,187,-2061895.0682,25,11.32%,115,13.81%
4.3175,BK1703,East Flatbush-Rugby,MultiPolygon,40.650870476,-73.930056633,172,9.79%,177,181,-1571148.5208,96,7.21%,71,16.35%
4.3161,QN0801,Kew Gardens Hills,MultiPolygon,40.725833887,-73.818979265,116,14.01%,178,157,-564871.9309,125,6.38%,95,14.93%
4.2373,BK0501,Cypress Hills,MultiPolygon,40.681816607,-73.886501598,115,14.02%,179,180,-1462795.6837,149,5.46%,56,17.36%
4.0187,QN1206,Hollis,MultiPolygon,40.711104107,-73.763619073,177,9.24%,180,178,-1405339.3898,70,8.41%,88,15.32%
4.0001,QN0203,Woodside,MultiPolygon,40.742332741,-73.900045658,105,14.78%,181,169,-923457.0098,169,4.95%,4,33.14%
3.9964,BX0301,Morrisania,MultiPolygon,40.826425178,-73.906671042,13,29.56%,182,189,-2560586.0877,4,15.62%,123,13.36%
3.9625,QN0504,Middle Village,MultiPolygon,40.720463890,-73.879677700,154,11.42%,183,159,-684793.762,184,4.12%,97,14.87%
3.9281,QN1201,Jamaica,MultiPolygon,40.704392783,-73.793383140,130,13.23%,184,188,-2384216.4403,43,9.36%,20,23.81%
3.9054,QN1304,Cambria Heights,MultiPolygon,40.694699299,-73.736703503,196,3.41%,185,166,-882718.7291,153,5.42%,151,12.15%
3.8079,MN1001,Harlem (South),MultiPolygon,40.803753859,-73.951247477,101,15.12%,186,182,-1608497.9919,110,6.92%,156,11.88%
3.7446,QN1303,Queens Village,MultiPolygon,40.719204115,-73.743015483,178,9.20%,187,184,-1891016.6741,45,9.17%,86,15.50%
3.5362,BK1601,Ocean Hill,MultiPolygon,40.676907209,-73.912891658,79,16.73%,188,190,-2598736.7898,79,7.99%,148,12.39%
3.4683,QN1305,Laurelton,MultiPolygon,40.676240782,-73.744994711,197,2.92%,189,177,-1331391.6492,167,5.04%,163,11.34%
3.3294,SI0102,Tompkinsville-Stapleton-Clifton-Fox Hills,MultiPolygon,40.625540520,-74.078198291,182,8.85%,190,186,-1977610.2306,113,6.87%,105,14.29%
3.2973,BK0302,Bedford-Stuyvesant (East),MultiPolygon,40.687655310,-73.932046528,72,17.27%,191,192,-3265226.3004,48,9.12%,179,10.19%
3.1957,QN1202,South Jamaica,MultiPolygon,40.693943275,-73.793350898,123,13.66%,192,196,-3923144.6392,3,15.62%,63,16.73%
2.4925,BK1801,Flatlands,MultiPolygon,40.628163197,-73.929896396,189,7.72%,193,193,-3444044.3797,88,7.44%,130,13.18%
2.3549,QN1205,St. Albans,MultiPolygon,40.694068467,-73.762472299,191,7.53%,194,191,-3121732.8749,155,5.34%,154,11.99%
2.2455,QN0105,Queensbridge-Ravenswood-Dutch Kills,MultiPolygon,40.759275737,-73.937114580,60,18.81%,195,195,-3790742.5204,94,7.24%,55,17.41%
1.9331,BK1803,Canarsie,MultiPolygon,40.641799596,-73.896134437,192,7.51%,196,197,-4606011.5076,105,7.03%,122,13.40%
1.6679,QN0902,Richmond Hill,MultiPolygon,40.698559017,-73.829352402,124,13.60%,197,194,-3674853.8866,119,6.53%,35,19.58%